<?xml version="1.0"?>
<gpx version="1.1" creator="Xcode">
    (17.9528061, -92.9816160)
    25.576421045146443
    19.43354474244915, -99.14506652790901
    19.43463743880683, -99.14700844726629
    19.430357669412093, -99.14125779104803
    <wpt lat="39.1564227218973" lon="-119.74816870312345">
        <name>GYM_SEVEN_FT_HEMICICLO</name>
        <time>2010-01-01T00:10:00Z</time>
    </wpt>
    
    <!--
        19.4352089242543, -99.14125702395559
    <wpt lat="19.4352089242543" lon="-99.14125702395559">
        <name>GYM_ºPALACIO</name>
        <time>2010-01-01T00:10:00Z</time>
    </wpt>

    <wpt lat="19.435229041864613" lon="-99.1412915327655">
        <name>GYM_ATRAPA_DISFRUTA</name>
        <time>2010-01-01T00:11:40Z</time>
    </wpt>
    
    <wpt lat="19.43643631395126" lon="-99.14378475503553">
         <name>GYM_KIOSKO</name>
         <time>2010-01-01çT00:11:40Z</time>
     </wpt>
   
   <wpt lat="19.435025234580714" lon="-99.14415264616397">
       <name>GYM_HEMICICLO</name>
       <time>2010-01-01T00:11:20Z</time>
        
    </wpt>
    
    <wpt lat="19.434437579973483" lon="-99.14703010052439">
        <name>GYM_ATRAPA_DISFRUTA</name>
        <time>2010-01-01T00:11:40Z</time>ya
    </wpt>
     
    <wpt lat="19.436526339548184" lon="-99.13763670551526">
        <name>TRES_GYM_JUNTOS</name>
        <time>2010-01-01T00:10:00Z</time>
    </wpt>
    
    <wpt lat="19.434344172849702" lon="-99.14283397709103">
        <name>GYM_SEVEN_FT_HEMICICLO</name>
        <time>2010-01-01T00:10:00Z</time>
    </wpt>
    
    <wpt lat="19.43387212114853" lon="-99.14314725374297">
        <name>GYM_SEVEN_FT_SEVEN_FT_HEMICICLO</name>
        <time>2010-01-01T00:10:00Z</time>
    </wpt>
    
    <wpt lat="19.436061589790963" lon="-99.14585085600446">
        <name>GYM_FUENTE_MERCURIO</name>
        <time>2010-01-01T00:11:40Z</time>
    </wpt>
    
    <wpt lat="19.436817240392553" lon="-99.14577348750525">
        <name>GYM_FUENTE_NORTE</name>
        <time>2010-01-01T00:11:40Z</time>
    </wpt>
    
    <wpt lat="19.434437579973483" lon="-99.14703010052439">
        <name>GYM_ATRAPA_DISFRUTA</name>
        <time>2010-01-01T00:11:40Z</time>
    </wpt>
    
    <wpt lat="19.433901470446127" lon="-99.14743940750043">
          <name>GYM_SEVEN_FT_ATRAPA_DISFRUTA_1</name>
          <time>2010-01-01T00:11:40Z</time>
      </wpt>
    
    <wpt lat="19.43389063798839" lon="-99.1473996859897">
        <name>GYM_SEVEN_FT_ATRAPA_DISFRUTA_2</name>
        <time>2010-01-01T00:11:40Z</time>
    </wpt>
    
    <wpt lat="19.434113623676296" lon="-99.13506467318899">
        <name>GYM_SEVEN_FT_ATRAPA_DISFRUTA_2</name>
        <time>2010-01-01T00:11:40Z</time>
    </wpt>
    
    <wpt lat="19.432082844003" lon="-99.14111618983083">
        <name>TRES_GYM_JUNTOS</name>
        <time>2010-01-01T00:10:00Z</time>
    </wpt>
    -->
</gpx>

