<?xml version="1.0"?>
<gpx version="1.1" creator="Xcode">
    <wpt lat="19.42086889576377" lon="-99.19169566977732">
        <name>GYM_ESTATUA_NEZAHUALCOYOTL</name>
        <time>2010-01-01T00:10:00Z</time>
    </wpt>
 <!--
// CHAPULTEPEC
 
 <wpt lat="19.42401273101032" lon="-99.17929607886722">
     <name>GYM_PARQUE_AMISTAD</name>
     <time>2010-01-01T00:10:00Z</time>
 </wpt>
 
 <wpt lat="19.42370758072532" lon="-99.17998400284301">
     <name>GYM_MONUM_ALFONOSO_MENA</name>
     <time>2010-01-01T00:10:00Z</time>
 </wpt>
 
 <wpt lat="19.421501369703613" lon="-99.17933033500776">
     <name>GYM_MONUMENTO_NIÃ‘OS_HEROES</name>
     <time>2010-01-01T00:10:00Z</time>
 </wpt>
 
 <wpt lat="19.419212049008088" lon="-99.18049983807627">
     <name>GYM_ESTATUA_GRIEGA</name>
     <time>2010-01-01T00:10:00Z</time>
 </wpt>
 
 <wpt lat="19.425413823629498" lon="-99.18189780746825">
     <name>GYM_POWE_CUBE</name>
     <time>2010-01-01T00:10:00Z</time>
 </wpt>
 
 <wpt lat="19.424876361336665" lon="-99.18491852200124">
     <name>GYM_EL_CHAPULIN</name>
     <time>2010-01-01T00:10:00Z</time>
 </wpt>
 
 <wpt lat="19.42589540166406" lon="-99.18535749550267">
     <name>GYM_MUSEO_NACIONAL_ANTROPOLOGIA</name>
     <time>2010-01-01T00:10:00Z</time>
 </wpt>
 
 <wpt lat="19.427880388949955" lon="-99.18454708288468">
     <name>GYM_MONUMENTO_GHANDI</name>
     <time>2010-01-01T00:10:00Z</time>
 </wpt>
 
 <wpt lat="19.42565749332976" lon="-99.18999748462454">
     <name>GYM_ESTATUA_TITO</name>
     <time>2010-01-01T00:10:00Z</time>
 </wpt>

 <wpt lat="19.42086889576377" lon="-99.19169566977732">
     <name>GYM_ESTATUA_NEZAHUALCOYOTL</name>
     <time>2010-01-01T00:10:00Z</time>
 </wpt>
 -->
  
</gpx>
